{
  "type": "FeatureCollection",
  "features": [
    {
      "type": "Feature",
      "geometry": {
        "type": "Point",
        "coordinates": [
          -71.4349594,
          -32.507347
        ]
      },
      "properties": {
        "name": "Jardín Infantil Sueño Hermoso",
        "category": "Educación",
        "risk_level": 2,
        "risk_name": "Medio",
        "risk_color": "#FFFF00"
      }
    },
    {
      "type": "Feature",
      "geometry": {
        "type": "Point",
        "coordinates": [
          -71.4464793,
          -32.5083295
        ]
      },
      "properties": {
        "name": "Colegio Antonio Zanoletti",
        "category": "Educación",
        "risk_level": 2,
        "risk_name": "Medio",
        "risk_color": "#FFFF00"
      }
    },
    {
      "type": "Feature",
      "geometry": {
        "type": "Point",
        "coordinates": [
          -71.4394156,
          -32.5075344
        ]
      },
      "properties": {
        "name": "Jardín Infantil",
        "category": "Educación",
        "risk_level": 2,
        "risk_name": "Medio",
        "risk_color": "#FFFF00"
      }
    },
    {
      "type": "Feature",
      "geometry": {
        "type": "Point",
        "coordinates": [
          -71.4460258,
          -32.509138
        ]
      },
      "properties": {
        "name": "Liceo Técnico Profesional Papudo",
        "category": "Educación",
        "risk_level": 2,
        "risk_name": "Medio",
        "risk_color": "#FFFF00"
      }
    },
    {
      "type": "Feature",
      "geometry": {
        "type": "Point",
        "coordinates": [
          -71.4390991,
          -32.5072186
        ]
      },
      "properties": {
        "name": "Escuela Básica Papudo",
        "category": "Educación",
        "risk_level": 2,
        "risk_name": "Medio",
        "risk_color": "#FFFF00"
      }
    },
    {
      "type": "Feature",
      "geometry": {
        "type": "Point",
        "coordinates": [
          -71.4448023,
          -32.508037
        ]
      },
      "properties": {
        "name": "Del Valle",
        "category": "Salud",
        "risk_level": 2,
        "risk_name": "Medio",
        "risk_color": "#FFFF00"
      }
    },
    {
      "type": "Feature",
      "geometry": {
        "type": "Point",
        "coordinates": [
          -71.4361397,
          -32.5061607
        ]
      },
      "properties": {
        "name": "CESFAM Papudo",
        "category": "Salud",
        "risk_level": 2,
        "risk_name": "Medio",
        "risk_color": "#FFFF00"
      }
    },
    {
      "type": "Feature",
      "geometry": {
        "type": "Point",
        "coordinates": [
          -71.4402964,
          -32.5059964
        ]
      },
      "properties": {
        "name": "Bomberos de Papudo",
        "category": "Emergencias",
        "risk_level": 2,
        "risk_name": "Medio",
        "risk_color": "#FFFF00"
      }
    },
    {
      "type": "Feature",
      "geometry": {
        "type": "Point",
        "coordinates": [
          -71.4416589,
          -32.5063131
        ]
      },
      "properties": {
        "name": "Retén Papudo",
        "category": "Emergencias",
        "risk_level": 2,
        "risk_name": "Medio",
        "risk_color": "#FFFF00"
      }
    },
    {
      "type": "Feature",
      "geometry": {
        "type": "Point",
        "coordinates": [
          -71.4476619,
          -32.5064406
        ]
      },
      "properties": {
        "name": "Municipalidad de Papudo",
        "category": "Gobierno",
        "risk_level": 2,
        "risk_name": "Medio",
        "risk_color": "#FFFF00"
      }
    },
    {
      "type": "Feature",
      "geometry": {
        "type": "Point",
        "coordinates": [
          -71.4499091,
          -32.5057091
        ]
      },
      "properties": {
        "name": "Caleta Papudo",
        "category": "Comercio",
        "risk_level": 2,
        "risk_name": "Medio",
        "risk_color": "#FFFF00"
      }
    },
    {
      "type": "Feature",
      "geometry": {
        "type": "Point",
        "coordinates": [
          -71.443276,
          -32.5071291
        ]
      },
      "properties": {
        "name": "Almacén El Liguano",
        "category": "Comercio",
        "risk_level": 2,
        "risk_name": "Medio",
        "risk_color": "#FFFF00"
      }
    },
    {
      "type": "Feature",
      "geometry": {
        "type": "Point",
        "coordinates": [
          -71.4468051,
          -32.5072416
        ]
      },
      "properties": {
        "name": "Miraflores",
        "category": "Comercio",
        "risk_level": 2,
        "risk_name": "Medio",
        "risk_color": "#FFFF00"
      }
    },
    {
      "type": "Feature",
      "geometry": {
        "type": "Point",
        "coordinates": [
          -71.4469526,
          -32.5073818
        ]
      },
      "properties": {
        "name": "Provipan",
        "category": "Comercio",
        "risk_level": 2,
        "risk_name": "Medio",
        "risk_color": "#FFFF00"
      }
    },
    {
      "type": "Feature",
      "geometry": {
        "type": "Point",
        "coordinates": [
          -71.4391004,
          -32.5064288
        ]
      },
      "properties": {
        "name": "Don Enzo",
        "category": "Comercio",
        "risk_level": 2,
        "risk_name": "Medio",
        "risk_color": "#FFFF00"
      }
    },
    {
      "type": "Feature",
      "geometry": {
        "type": "Point",
        "coordinates": [
          -71.4431421,
          -32.5072926
        ]
      },
      "properties": {
        "name": "Almacén Coñaripe",
        "category": "Comercio",
        "risk_level": 2,
        "risk_name": "Medio",
        "risk_color": "#FFFF00"
      }
    },
    {
      "type": "Feature",
      "geometry": {
        "type": "Point",
        "coordinates": [
          -71.4457756,
          -32.5085376
        ]
      },
      "properties": {
        "name": "Bazar Don Sergio",
        "category": "Comercio",
        "risk_level": 2,
        "risk_name": "Medio",
        "risk_color": "#FFFF00"
      }
    },
    {
      "type": "Feature",
      "geometry": {
        "type": "Point",
        "coordinates": [
          -71.445035,
          -32.5082285
        ]
      },
      "properties": {
        "name": "Ecomarket",
        "category": "Comercio",
        "risk_level": 2,
        "risk_name": "Medio",
        "risk_color": "#FFFF00"
      }
    },
    {
      "type": "Feature",
      "geometry": {
        "type": "Point",
        "coordinates": [
          -71.4379643,
          -32.5061398
        ]
      },
      "properties": {
        "name": "Botillería Al Paso",
        "category": "Comercio",
        "risk_level": 2,
        "risk_name": "Medio",
        "risk_color": "#FFFF00"
      }
    },
    {
      "type": "Feature",
      "geometry": {
        "type": "Point",
        "coordinates": [
          -71.4365273,
          -32.5036399
        ]
      },
      "properties": {
        "name": "Sin nombre",
        "category": "Comercio",
        "risk_level": 2,
        "risk_name": "Medio",
        "risk_color": "#FFFF00"
      }
    }
  ]
}