{
  "type": "FeatureCollection",
  "features": [
    {
      "type": "Feature",
      "geometry": {
        "type": "Point",
        "coordinates": [
          -71.4349594,
          -32.507347
        ]
      },
      "properties": {
        "osm_id": 3636092086,
        "osm_type": "node",
        "name": "Jardín Infantil Sueño Hermoso",
        "amenity": "kindergarten",
        "shop": "",
        "building": "",
        "addr_street": "El Maitén",
        "addr_number": "",
        "category": "Educación"
      }
    },
    {
      "type": "Feature",
      "geometry": {
        "type": "Point",
        "coordinates": [
          -71.4464793,
          -32.5083295
        ]
      },
      "properties": {
        "osm_id": 5189559723,
        "osm_type": "node",
        "name": "Colegio Antonio Zanoletti",
        "amenity": "school",
        "shop": "",
        "building": "",
        "addr_street": "Chorrillos",
        "addr_number": "",
        "category": "Educación"
      }
    },
    {
      "type": "Feature",
      "geometry": {
        "type": "Point",
        "coordinates": [
          -71.4394156,
          -32.5075344
        ]
      },
      "properties": {
        "osm_id": 351259046,
        "osm_type": "way",
        "name": "Jardín Infantil",
        "amenity": "kindergarten",
        "shop": "",
        "building": "",
        "addr_street": "Serrano",
        "addr_number": "",
        "category": "Educación"
      }
    },
    {
      "type": "Feature",
      "geometry": {
        "type": "Point",
        "coordinates": [
          -71.4460258,
          -32.509138
        ]
      },
      "properties": {
        "osm_id": 556485250,
        "osm_type": "way",
        "name": "Liceo Técnico Profesional Papudo",
        "amenity": "school",
        "shop": "",
        "building": "",
        "addr_street": "Chorrillos",
        "addr_number": "279",
        "category": "Educación"
      }
    },
    {
      "type": "Feature",
      "geometry": {
        "type": "Point",
        "coordinates": [
          -71.4390991,
          -32.5072186
        ]
      },
      "properties": {
        "osm_id": 628650638,
        "osm_type": "way",
        "name": "Escuela Básica Papudo",
        "amenity": "school",
        "shop": "",
        "building": "",
        "addr_street": "Serrano",
        "addr_number": "750",
        "category": "Educación"
      }
    },
    {
      "type": "Feature",
      "geometry": {
        "type": "Point",
        "coordinates": [
          -71.4448023,
          -32.508037
        ]
      },
      "properties": {
        "osm_id": 4621485653,
        "osm_type": "node",
        "name": "Del Valle",
        "amenity": "pharmacy",
        "shop": "",
        "building": "",
        "addr_street": "Domingo Fernández Concha",
        "addr_number": "303",
        "category": "Salud"
      }
    },
    {
      "type": "Feature",
      "geometry": {
        "type": "Point",
        "coordinates": [
          -71.4361397,
          -32.5061607
        ]
      },
      "properties": {
        "osm_id": 800818783,
        "osm_type": "way",
        "name": "CESFAM Papudo",
        "amenity": "clinic",
        "shop": "",
        "building": "",
        "addr_street": "",
        "addr_number": "",
        "category": "Salud"
      }
    },
    {
      "type": "Feature",
      "geometry": {
        "type": "Point",
        "coordinates": [
          -71.4402964,
          -32.5059964
        ]
      },
      "properties": {
        "osm_id": 1080455251,
        "osm_type": "node",
        "name": "Bomberos de Papudo",
        "amenity": "fire_station",
        "shop": "",
        "building": "",
        "addr_street": "",
        "addr_number": "",
        "category": "Emergencias"
      }
    },
    {
      "type": "Feature",
      "geometry": {
        "type": "Point",
        "coordinates": [
          -71.4416589,
          -32.5063131
        ]
      },
      "properties": {
        "osm_id": 1080455256,
        "osm_type": "node",
        "name": "Retén Papudo",
        "amenity": "police",
        "shop": "",
        "building": "",
        "addr_street": "Domingo Fernández Concha",
        "addr_number": "610",
        "category": "Emergencias"
      }
    },
    {
      "type": "Feature",
      "geometry": {
        "type": "Point",
        "coordinates": [
          -71.4476619,
          -32.5064406
        ]
      },
      "properties": {
        "osm_id": 633913476,
        "osm_type": "way",
        "name": "Municipalidad de Papudo",
        "amenity": "townhall",
        "shop": "",
        "building": "yes",
        "addr_street": "Chorrillos",
        "addr_number": "9",
        "category": "Gobierno"
      }
    },
    {
      "type": "Feature",
      "geometry": {
        "type": "Point",
        "coordinates": [
          -71.4499091,
          -32.5057091
        ]
      },
      "properties": {
        "osm_id": 958857872,
        "osm_type": "node",
        "name": "Caleta Papudo",
        "amenity": "",
        "shop": "convenience",
        "building": "",
        "addr_street": "",
        "addr_number": "",
        "category": "Comercio"
      }
    },
    {
      "type": "Feature",
      "geometry": {
        "type": "Point",
        "coordinates": [
          -71.443276,
          -32.5071291
        ]
      },
      "properties": {
        "osm_id": 1080455254,
        "osm_type": "node",
        "name": "Almacén El Liguano",
        "amenity": "",
        "shop": "convenience",
        "building": "",
        "addr_street": "Domingo Fernández Concha",
        "addr_number": "",
        "category": "Comercio"
      }
    },
    {
      "type": "Feature",
      "geometry": {
        "type": "Point",
        "coordinates": [
          -71.4468051,
          -32.5072416
        ]
      },
      "properties": {
        "osm_id": 1080455259,
        "osm_type": "node",
        "name": "Miraflores",
        "amenity": "",
        "shop": "supermarket",
        "building": "",
        "addr_street": "",
        "addr_number": "",
        "category": "Comercio"
      }
    },
    {
      "type": "Feature",
      "geometry": {
        "type": "Point",
        "coordinates": [
          -71.4469526,
          -32.5073818
        ]
      },
      "properties": {
        "osm_id": 2558052418,
        "osm_type": "node",
        "name": "Provipan",
        "amenity": "",
        "shop": "convenience",
        "building": "",
        "addr_street": "",
        "addr_number": "",
        "category": "Comercio"
      }
    },
    {
      "type": "Feature",
      "geometry": {
        "type": "Point",
        "coordinates": [
          -71.4391004,
          -32.5064288
        ]
      },
      "properties": {
        "osm_id": 4621485649,
        "osm_type": "node",
        "name": "Don Enzo",
        "amenity": "",
        "shop": "convenience",
        "building": "",
        "addr_street": "",
        "addr_number": "",
        "category": "Comercio"
      }
    },
    {
      "type": "Feature",
      "geometry": {
        "type": "Point",
        "coordinates": [
          -71.4431421,
          -32.5072926
        ]
      },
      "properties": {
        "osm_id": 4621485651,
        "osm_type": "node",
        "name": "Almacén Coñaripe",
        "amenity": "",
        "shop": "convenience",
        "building": "",
        "addr_street": "",
        "addr_number": "",
        "category": "Comercio"
      }
    },
    {
      "type": "Feature",
      "geometry": {
        "type": "Point",
        "coordinates": [
          -71.4457756,
          -32.5085376
        ]
      },
      "properties": {
        "osm_id": 4621485656,
        "osm_type": "node",
        "name": "Bazar Don Sergio",
        "amenity": "",
        "shop": "convenience",
        "building": "",
        "addr_street": "Domingo Fernández Concha",
        "addr_number": "",
        "category": "Comercio"
      }
    },
    {
      "type": "Feature",
      "geometry": {
        "type": "Point",
        "coordinates": [
          -71.445035,
          -32.5082285
        ]
      },
      "properties": {
        "osm_id": 5176918528,
        "osm_type": "node",
        "name": "Ecomarket",
        "amenity": "",
        "shop": "supermarket",
        "building": "",
        "addr_street": "Domingo Fernández Concha",
        "addr_number": "271",
        "category": "Comercio"
      }
    },
    {
      "type": "Feature",
      "geometry": {
        "type": "Point",
        "coordinates": [
          -71.4379643,
          -32.5061398
        ]
      },
      "properties": {
        "osm_id": 5189559823,
        "osm_type": "node",
        "name": "Botillería Al Paso",
        "amenity": "",
        "shop": "supermarket",
        "building": "",
        "addr_street": "",
        "addr_number": "",
        "category": "Comercio"
      }
    },
    {
      "type": "Feature",
      "geometry": {
        "type": "Point",
        "coordinates": [
          -71.4365273,
          -32.5036399
        ]
      },
      "properties": {
        "osm_id": 685016537,
        "osm_type": "way",
        "name": "Sin nombre",
        "amenity": "",
        "shop": "mall",
        "building": "",
        "addr_street": "",
        "addr_number": "",
        "category": "Comercio"
      }
    }
  ]
}